[
    {
        "id": 8962,
        "obdb_id": "black-beak-brewing-denver",
        "name": "Black Beak Brewing",
        "brewery_type": "planning",
        "street": null,
        "address_2": null,
        "address_3": null,
        "city": "Denver",
        "state": "Colorado",
        "county_province": null,
        "postal_code": "80237-1907",
        "country": "United States",
        "longitude": "-104.984696",
        "latitude": "39.7391428",
        "phone": "3032107836",
        "website_url": null,
        "updated_at": "2018-08-24T00:00:00.000Z",
        "created_at": "2018-07-24T00:00:00.000Z"
    },
    {
        "id": 8245,
        "obdb_id": "aero-craft-brewing-denver",
        "name": "Aero Craft Brewing",
        "brewery_type": "planning",
        "street": null,
        "address_2": null,
        "address_3": null,
        "city": "Denver",
        "state": "Colorado",
        "county_province": null,
        "postal_code": "80212-2199",
        "country": "United States",
        "longitude": "-104.984696",
        "latitude": "39.7391428",
        "phone": "3039185446",
        "website_url": "http://www.aerocraft.beer",
        "updated_at": "2018-08-24T00:00:00.000Z",
        "created_at": "2018-07-24T00:00:00.000Z"
    },
    {
        "id": 13467,
        "obdb_id": "pints-pub-brewery-and-freehouse-denver",
        "name": "Pints Pub Brewery and Freehouse",
        "brewery_type": "brewpub",
        "street": "221 W 13th Ave",
        "address_2": null,
        "address_3": null,
        "city": "Denver",
        "state": "Colorado",
        "county_province": null,
        "postal_code": "80204-2711",
        "country": "United States",
        "longitude": "-104.9908538",
        "latitude": "39.737018",
        "phone": "3035347543",
        "website_url": "http://www.pintspub.com",
        "updated_at": "2018-08-24T00:00:00.000Z",
        "created_at": "2018-07-24T00:00:00.000Z"
    },
    {
        "id": 11093,
        "obdb_id": "grandma-s-house-denver",
        "name": "Grandma's House",
        "brewery_type": "micro",
        "street": "1710 S Broadway",
        "address_2": null,
        "address_3": null,
        "city": "Denver",
        "state": "Colorado",
        "county_province": null,
        "postal_code": "80210-3102",
        "country": "United States",
        "longitude": "-104.9872737",
        "latitude": "39.74350567",
        "phone": "3035786754",
        "website_url": "http://www.grandmasbeer.com",
        "updated_at": "2018-08-24T00:00:00.000Z",
        "created_at": "2018-07-24T00:00:00.000Z"
    },
    {
        "id": 8598,
        "obdb_id": "banded-oak-brewing-company-denver",
        "name": "Banded Oak Brewing Company",
        "brewery_type": "brewpub",
        "street": "470 N Broadway",
        "address_2": null,
        "address_3": null,
        "city": "Denver",
        "state": "Colorado",
        "county_province": null,
        "postal_code": "80203-3404",
        "country": "United States",
        "longitude": "-104.9874187",
        "latitude": "39.7282897",
        "phone": "7204798033",
        "website_url": "http://Bandedoakbrewing.com",
        "updated_at": "2018-08-24T00:00:00.000Z",
        "created_at": "2018-07-24T00:00:00.000Z"
    }
]
