[
    {
        "id": 10249,
        "obdb_id": "dos-luces-brewery-denver",
        "name": "Dos Luces Brewery",
        "brewery_type": "contract",
        "street": "1236 S Broadway",
        "address_2": null,
        "address_3": null,
        "city": "Denver",
        "state": "Colorado",
        "county_province": null,
        "postal_code": "80210-1504",
        "country": "United States",
        "longitude": "-104.9874923",
        "latitude": "39.6830067",
        "phone": "3037254527",
        "website_url": "http://www.dosluces.com",
        "updated_at": "2018-08-24T00:00:00.000Z",
        "created_at": "2018-07-24T00:00:00.000Z"
    },
    {
        "id": 13497,
        "obdb_id": "platt-park-brewing-co-denver",
        "name": "Platt Park Brewing Co.",
        "brewery_type": "micro",
        "street": "1875 S Pearl St",
        "address_2": null,
        "address_3": null,
        "city": "Denver",
        "state": "Colorado",
        "county_province": null,
        "postal_code": "80210-3136",
        "country": "United States",
        "longitude": "-104.9805967",
        "latitude": "39.68267416",
        "phone": "3039686674",
        "website_url": "http://www.plattparkbrewing.com",
        "updated_at": "2018-08-24T00:00:00.000Z",
        "created_at": "2018-07-24T00:00:00.000Z"
    },
    {
        "id": 14957,
        "obdb_id": "the-grateful-gnome-sandwich-shoppe-and-brewery-denver",
        "name": "The Grateful Gnome Sandwich Shoppe and Brewery",
        "brewery_type": "brewpub",
        "street": "4369 Stuart St",
        "address_2": null,
        "address_3": null,
        "city": "Denver",
        "state": "Colorado",
        "county_province": null,
        "postal_code": "80212-2335",
        "country": "United States",
        "longitude": "-105.0432655",
        "latitude": "39.7764426",
        "phone": "7205986863",
        "website_url": "http://www.thegratefulgnome.com",
        "updated_at": "2018-08-24T00:00:00.000Z",
        "created_at": "2018-07-24T00:00:00.000Z"
    },
    {
        "id": 10148,
        "obdb_id": "desteeg-brewing-co-blind-faith-brewing-denver",
        "name": "DeSteeg Brewing Co/Blind Faith Brewing",
        "brewery_type": "micro",
        "street": "4342 Tennyson St",
        "address_2": null,
        "address_3": null,
        "city": "Denver",
        "state": "Colorado",
        "county_province": null,
        "postal_code": "80212-2308",
        "country": "United States",
        "longitude": "-105.0438193",
        "latitude": "39.7760619",
        "phone": "3034849698",
        "website_url": "http://www.desteegbrewing.com",
        "updated_at": "2018-08-24T00:00:00.000Z",
        "created_at": "2018-07-24T00:00:00.000Z"
    },
    {
        "id": 10097,
        "obdb_id": "declaration-brewing-company-denver",
        "name": "Declaration Brewing Company",
        "brewery_type": "micro",
        "street": "2030 S Cherokee St",
        "address_2": null,
        "address_3": null,
        "city": "Denver",
        "state": "Colorado",
        "county_province": null,
        "postal_code": "80223-3917",
        "country": "United States",
        "longitude": "-104.9910056",
        "latitude": "39.67973155",
        "phone": "3039557410",
        "website_url": "http://www.declarationbrewing.com",
        "updated_at": "2018-08-24T00:00:00.000Z",
        "created_at": "2018-07-24T00:00:00.000Z"
    },
    {
        "id": 9526,
        "obdb_id": "call-to-arms-brewing-company-denver",
        "name": "Call To Arms Brewing Company",
        "brewery_type": "micro",
        "street": "4526 Tennyson St",
        "address_2": null,
        "address_3": null,
        "city": "Denver",
        "state": "Colorado",
        "county_province": null,
        "postal_code": "80212-2527",
        "country": "United States",
        "longitude": "-105.0435373",
        "latitude": "39.7788541",
        "phone": null,
        "website_url": "http://www.facebook.com/calltoarmsbrewing",
        "updated_at": "2018-08-24T00:00:00.000Z",
        "created_at": "2018-07-24T00:00:00.000Z"
    },
    {
        "id": 11012,
        "obdb_id": "goldspot-brewing-co-denver",
        "name": "Goldspot Brewing Co",
        "brewery_type": "micro",
        "street": "4970 Lowell Blvd",
        "address_2": null,
        "address_3": null,
        "city": "Denver",
        "state": "Colorado",
        "county_province": null,
        "postal_code": "80221-1028",
        "country": "United States",
        "longitude": "-105.0343545",
        "latitude": "39.7868924",
        "phone": "3039555657",
        "website_url": "http://www.goldspotbrewing.com",
        "updated_at": "2018-08-24T00:00:00.000Z",
        "created_at": "2018-07-24T00:00:00.000Z"
    },
    {
        "id": 14976,
        "obdb_id": "the-larimer-beer-company-denver",
        "name": "The Larimer Beer Company",
        "brewery_type": "contract",
        "street": "3620 Newport St",
        "address_2": null,
        "address_3": null,
        "city": "Denver",
        "state": "Colorado",
        "county_province": null,
        "postal_code": "80207-1508",
        "country": "United States",
        "longitude": "-104.9093487",
        "latitude": "39.76773768",
        "phone": "7205076369",
        "website_url": "http://www.thelarimer.com",
        "updated_at": "2018-08-24T00:00:00.000Z",
        "created_at": "2018-07-24T00:00:00.000Z"
    },
    {
        "id": 15644,
        "obdb_id": "westfax-brewing-co-lakewood",
        "name": "WestFax Brewing Co.",
        "brewery_type": "micro",
        "street": "6733 W Colfax Ave",
        "address_2": null,
        "address_3": null,
        "city": "Lakewood",
        "state": "Colorado",
        "county_province": null,
        "postal_code": "80214-1807",
        "country": "United States",
        "longitude": "-105.0710839",
        "latitude": "39.7415749",
        "phone": "3032333742",
        "website_url": "http://www.westfaxbrewingcompany.com",
        "updated_at": "2018-08-24T00:00:00.000Z",
        "created_at": "2018-07-24T00:00:00.000Z"
    },
    {
        "id": 14592,
        "obdb_id": "station-26-brewing-co-denver",
        "name": "Station 26 Brewing Co",
        "brewery_type": "micro",
        "street": "7045 E 38th Ave",
        "address_2": null,
        "address_3": null,
        "city": "Denver",
        "state": "Colorado",
        "county_province": null,
        "postal_code": "80207-1541",
        "country": "United States",
        "longitude": "-104.9062608",
        "latitude": "39.76935335",
        "phone": null,
        "website_url": "http://www.station26brewing.co",
        "updated_at": "2018-08-24T00:00:00.000Z",
        "created_at": "2018-07-24T00:00:00.000Z"
    },
    {
        "id": 10598,
        "obdb_id": "fermaentra-denver",
        "name": "Fermaentra",
        "brewery_type": "micro",
        "street": "1715 E Evans Ave",
        "address_2": null,
        "address_3": null,
        "city": "Denver",
        "state": "Colorado",
        "county_province": null,
        "postal_code": "80210-4601",
        "country": "United States",
        "longitude": "-104.9428631",
        "latitude": "39.6784277",
        "phone": "3039550736",
        "website_url": "http://www.fermaentra.com",
        "updated_at": "2018-08-24T00:00:00.000Z",
        "created_at": "2018-07-24T00:00:00.000Z"
    },
    {
        "id": 10611,
        "obdb_id": "fiction-beer-company-denver",
        "name": "Fiction Beer Company",
        "brewery_type": "micro",
        "street": "7101 E Colfax Ave",
        "address_2": null,
        "address_3": null,
        "city": "Denver",
        "state": "Colorado",
        "county_province": null,
        "postal_code": "80220-1805",
        "country": "United States",
        "longitude": "-104.8854207",
        "latitude": "39.7402188",
        "phone": "7204567163",
        "website_url": "http://www.fictionbeer.com",
        "updated_at": "2018-08-24T00:00:00.000Z",
        "created_at": "2018-07-24T00:00:00.000Z"
    },
    {
        "id": 12030,
        "obdb_id": "lady-justice-brewing-company-denver",
        "name": "Lady Justice Brewing Company",
        "brewery_type": "micro",
        "street": "4375 Eaton St",
        "address_2": null,
        "address_3": null,
        "city": "Denver",
        "state": "Colorado",
        "county_province": null,
        "postal_code": "80212-7308",
        "country": "United States",
        "longitude": "-105.0593393",
        "latitude": "39.7909855",
        "phone": null,
        "website_url": "http://www.ladyjusticebrewing.com",
        "updated_at": "2018-08-24T00:00:00.000Z",
        "created_at": "2018-07-24T00:00:00.000Z"
    },
    {
        "id": 9287,
        "obdb_id": "brewery-rickoli-wheat-ridge",
        "name": "Brewery Rickoli",
        "brewery_type": "micro",
        "street": "4335 Wadsworth Blvd",
        "address_2": null,
        "address_3": null,
        "city": "Wheat Ridge",
        "state": "Colorado",
        "county_province": null,
        "postal_code": "80033-4621",
        "country": "United States",
        "longitude": "-105.0818046",
        "latitude": "39.7757286",
        "phone": "3034316862",
        "website_url": "http://www.breweryrickoli.com",
        "updated_at": "2018-08-24T00:00:00.000Z",
        "created_at": "2018-07-24T00:00:00.000Z"
    },
    {
        "id": 14911,
        "obdb_id": "the-brew-on-broadway-the-bob-englewood",
        "name": "The Brew On Broadway (The BoB)",
        "brewery_type": "micro",
        "street": "3445 S Broadway",
        "address_2": null,
        "address_3": null,
        "city": "Englewood",
        "state": "Colorado",
        "county_province": null,
        "postal_code": "80113-2528",
        "country": "United States",
        "longitude": "-104.98772",
        "latitude": "39.65416792",
        "phone": "3037815665",
        "website_url": "http://www.thebrewonbroadway.com",
        "updated_at": "2018-08-24T00:00:00.000Z",
        "created_at": "2018-07-24T00:00:00.000Z"
    },
    {
        "id": 9814,
        "obdb_id": "colorado-plus-wheat-ridge",
        "name": "Colorado Plus",
        "brewery_type": "brewpub",
        "street": "6995 W 38th Ave",
        "address_2": null,
        "address_3": null,
        "city": "Wheat Ridge",
        "state": "Colorado",
        "county_province": null,
        "postal_code": "80033-4965",
        "country": "United States",
        "longitude": "-105.0916384",
        "latitude": "39.7693524",
        "phone": "3038775957",
        "website_url": "http://coloradoplus.net",
        "updated_at": "2018-08-24T00:00:00.000Z",
        "created_at": "2018-07-24T00:00:00.000Z"
    },
    {
        "id": 11086,
        "obdb_id": "grand-lake-brewing-co-the-arvada",
        "name": "Grand Lake Brewing Co, The",
        "brewery_type": "brewpub",
        "street": "5610 Yukon St",
        "address_2": null,
        "address_3": null,
        "city": "Arvada",
        "state": "Colorado",
        "county_province": null,
        "postal_code": "80002-2446",
        "country": "United States",
        "longitude": "-105.082456",
        "latitude": "39.79927412",
        "phone": "3039081677",
        "website_url": "http://www.grandlakebrewing.com",
        "updated_at": "2018-08-24T00:00:00.000Z",
        "created_at": "2018-07-24T00:00:00.000Z"
    },
    {
        "id": 12906,
        "obdb_id": "new-image-brewing-co-arvada",
        "name": "New Image Brewing Co",
        "brewery_type": "brewpub",
        "street": "5622 Yukon St",
        "address_2": null,
        "address_3": null,
        "city": "Arvada",
        "state": "Colorado",
        "county_province": null,
        "postal_code": "80002-2446",
        "country": "United States",
        "longitude": "-105.0824595",
        "latitude": "39.79938347",
        "phone": "7708811010",
        "website_url": "http://www.nibrewing.com",
        "updated_at": "2018-08-24T00:00:00.000Z",
        "created_at": "2018-07-24T00:00:00.000Z"
    },
    {
        "id": 10129,
        "obdb_id": "denver-beer-co-olde-town-arvada-arvada",
        "name": "Denver Beer Co Olde Town Arvada",
        "brewery_type": "micro",
        "street": "5768 Olde Wadsworth Blvd",
        "address_2": null,
        "address_3": null,
        "city": "Arvada",
        "state": "Colorado",
        "county_province": null,
        "postal_code": "80002-2549",
        "country": "United States",
        "longitude": "-105.0814554",
        "latitude": "39.801625",
        "phone": null,
        "website_url": null,
        "updated_at": "2018-08-24T00:00:00.000Z",
        "created_at": "2018-07-24T00:00:00.000Z"
    },
    {
        "id": 14517,
        "obdb_id": "spice-trade-brewing-arvada",
        "name": "Spice Trade Brewing",
        "brewery_type": "brewpub",
        "street": "7803 Ralston Rd",
        "address_2": null,
        "address_3": null,
        "city": "Arvada",
        "state": "Colorado",
        "county_province": null,
        "postal_code": "80002-2433",
        "country": "United States",
        "longitude": "-105.0841731",
        "latitude": "39.802334",
        "phone": "3034319000",
        "website_url": "http://www.spicetradebrewing.com",
        "updated_at": "2018-08-24T00:00:00.000Z",
        "created_at": "2018-07-24T00:00:00.000Z"
    },
    {
        "id": 13369,
        "obdb_id": "peak-to-peak-tap-brew-aurora-2",
        "name": "Peak To Peak Tap & Brew",
        "brewery_type": "micro",
        "street": "9735 E Colfax Ave",
        "address_2": null,
        "address_3": null,
        "city": "Aurora",
        "state": "Colorado",
        "county_province": null,
        "postal_code": "80010",
        "country": "United States",
        "longitude": "-104.8505299",
        "latitude": "39.7402157",
        "phone": null,
        "website_url": null,
        "updated_at": "2018-08-24T00:00:00.000Z",
        "created_at": "2018-07-24T00:00:00.000Z"
    },
    {
        "id": 11171,
        "obdb_id": "great-frontier-brewing-company-lakewood",
        "name": "Great Frontier Brewing Company",
        "brewery_type": "micro",
        "street": "2010 S Oak St",
        "address_2": null,
        "address_3": null,
        "city": "Lakewood",
        "state": "Colorado",
        "county_province": null,
        "postal_code": "80227-2050",
        "country": "United States",
        "longitude": "-105.1177216",
        "latitude": "39.6813614",
        "phone": "7203281758",
        "website_url": "http://www.greatfrontierbeer.com",
        "updated_at": "2018-08-24T00:00:00.000Z",
        "created_at": "2018-07-24T00:00:00.000Z"
    },
    {
        "id": 14082,
        "obdb_id": "saint-patrick-s-brewing-company-littleton",
        "name": "Saint Patrick's Brewing Company",
        "brewery_type": "micro",
        "street": "2842 W Bowles Ave",
        "address_2": null,
        "address_3": null,
        "city": "Littleton",
        "state": "Colorado",
        "county_province": null,
        "postal_code": "80120-1843",
        "country": "United States",
        "longitude": "-105.024584",
        "latitude": "39.6125875",
        "phone": "3037187575",
        "website_url": "http://www.stpatricksbrewco.com",
        "updated_at": "2018-08-24T00:00:00.000Z",
        "created_at": "2018-07-24T00:00:00.000Z"
    },
    {
        "id": 13368,
        "obdb_id": "peak-to-peak-tap-brew-aurora",
        "name": "Peak To Peak Tap & Brew",
        "brewery_type": "brewpub",
        "street": "16701 E Iliff Ave",
        "address_2": null,
        "address_3": null,
        "city": "Aurora",
        "state": "Colorado",
        "county_province": null,
        "postal_code": "80013-1148",
        "country": "United States",
        "longitude": "-104.8366181",
        "latitude": "39.6750535",
        "phone": "7204468714",
        "website_url": "http://www.peakbrews.com",
        "updated_at": "2018-08-24T00:00:00.000Z",
        "created_at": "2018-07-24T00:00:00.000Z"
    },
    {
        "id": 12001,
        "obdb_id": "kokopelli-beer-company-westminster",
        "name": "Kokopelli Beer Company",
        "brewery_type": "brewpub",
        "street": "8931 Harlan St",
        "address_2": null,
        "address_3": null,
        "city": "Westminster",
        "state": "Colorado",
        "county_province": null,
        "postal_code": "80031-2931",
        "country": "United States",
        "longitude": "-105.0640386",
        "latitude": "39.8590102",
        "phone": "7208406835",
        "website_url": "http://www.kokopellibeer.com",
        "updated_at": "2018-08-24T00:00:00.000Z",
        "created_at": "2018-07-24T00:00:00.000Z"
    },
    {
        "id": 8174,
        "obdb_id": "6-40-brewery-taproom-lakewood",
        "name": "6 & 40 Brewery/Taproom",
        "brewery_type": "planning",
        "street": null,
        "address_2": null,
        "address_3": null,
        "city": "Lakewood",
        "state": "Colorado",
        "county_province": null,
        "postal_code": "80215-5548",
        "country": "United States",
        "longitude": "-105.1100582",
        "latitude": "39.6311085",
        "phone": "3032325347",
        "website_url": "http://www.tomsbrewshop.com",
        "updated_at": "2018-08-24T00:00:00.000Z",
        "created_at": "2018-07-24T00:00:00.000Z"
    },
    {
        "id": 12108,
        "obdb_id": "launch-pad-brewery-aurora",
        "name": "Launch Pad Brewery",
        "brewery_type": "micro",
        "street": "884 S Buckley Rd",
        "address_2": null,
        "address_3": null,
        "city": "Aurora",
        "state": "Colorado",
        "county_province": null,
        "postal_code": "80017-3174",
        "country": "United States",
        "longitude": "-104.7911253",
        "latitude": "39.6853036",
        "phone": "7208782627",
        "website_url": "http://www.launchpadbrewery.com",
        "updated_at": "2018-08-24T00:00:00.000Z",
        "created_at": "2018-07-24T00:00:00.000Z"
    },
    {
        "id": 12922,
        "obdb_id": "new-terrain-brewing-company-golden",
        "name": "New Terrain Brewing Company",
        "brewery_type": "micro",
        "street": "16401 Table Mountain Pkwy",
        "address_2": null,
        "address_3": null,
        "city": "Golden",
        "state": "Colorado",
        "county_province": null,
        "postal_code": "80403-1863",
        "country": "United States",
        "longitude": "-105.1851036",
        "latitude": "39.77781975",
        "phone": "7206977848",
        "website_url": "http://newterrainbrewing.com",
        "updated_at": "2018-08-24T00:00:00.000Z",
        "created_at": "2018-07-24T00:00:00.000Z"
    },
    {
        "id": 13405,
        "obdb_id": "periodic-brewing-northglenn-northglenn",
        "name": "Periodic Brewing Northglenn",
        "brewery_type": "micro",
        "street": "2100 E 112th Ave",
        "address_2": null,
        "address_3": null,
        "city": "Northglenn",
        "state": "Colorado",
        "county_province": null,
        "postal_code": "80233-2345",
        "country": "United States",
        "longitude": "-104.9619495",
        "latitude": "39.89940226",
        "phone": "7208641012",
        "website_url": null,
        "updated_at": "2018-08-24T00:00:00.000Z",
        "created_at": "2018-07-24T00:00:00.000Z"
    },
    {
        "id": 14270,
        "obdb_id": "sherpa-brewery-pvt-ltd-golden",
        "name": "Sherpa Brewery Pvt. Ltd.",
        "brewery_type": "contract",
        "street": "1708 W 17th Dr",
        "address_2": null,
        "address_3": null,
        "city": "Golden",
        "state": "Colorado",
        "county_province": null,
        "postal_code": "80401-2507",
        "country": "United States",
        "longitude": "-105.1963424",
        "latitude": "39.7443713",
        "phone": null,
        "website_url": null,
        "updated_at": "2018-08-24T00:00:00.000Z",
        "created_at": "2018-07-24T00:00:00.000Z"
    },
    {
        "id": 10305,
        "obdb_id": "dry-dock-brewing-co-north-dock-aurora",
        "name": "Dry Dock Brewing Co - North Dock",
        "brewery_type": "regional",
        "street": "2801 Tower Rd",
        "address_2": null,
        "address_3": null,
        "city": "Aurora",
        "state": "Colorado",
        "county_province": null,
        "postal_code": "80011-3508",
        "country": "United States",
        "longitude": "-104.772404",
        "latitude": "39.758038",
        "phone": "3034005606",
        "website_url": "http://www.drydockbrewing.com",
        "updated_at": "2018-08-24T00:00:00.000Z",
        "created_at": "2018-07-24T00:00:00.000Z"
    },
    {
        "id": 8112,
        "obdb_id": "3-freaks-brewing-co-highlands-ranch",
        "name": "3 Freaks Brewing Co",
        "brewery_type": "micro",
        "street": "7140 E County Line Rd",
        "address_2": null,
        "address_3": null,
        "city": "Highlands Ranch",
        "state": "Colorado",
        "county_province": null,
        "postal_code": "80126-3926",
        "country": "United States",
        "longitude": "-104.9426656",
        "latitude": "39.5659575",
        "phone": "7202990994",
        "website_url": "http://www.3freaksbrewery.com",
        "updated_at": "2018-08-24T00:00:00.000Z",
        "created_at": "2018-07-24T00:00:00.000Z"
    },
    {
        "id": 9507,
        "obdb_id": "c-b-and-potts-big-horn-brewery-westminster-westminster",
        "name": "C.B. and Potts/Big Horn Brewery - Westminster",
        "brewery_type": "brewpub",
        "street": "1257 W 120th Ave",
        "address_2": null,
        "address_3": null,
        "city": "Westminster",
        "state": "Colorado",
        "county_province": null,
        "postal_code": "80234-2725",
        "country": "United States",
        "longitude": "-105.0040899",
        "latitude": "39.91376115",
        "phone": "3034515767",
        "website_url": "http://www.cbpotts.com",
        "updated_at": "2018-08-24T00:00:00.000Z",
        "created_at": "2018-07-24T00:00:00.000Z"
    },
    {
        "id": 9506,
        "obdb_id": "c-b-and-potts-big-horn-brewery-highlands-ranch-highlands-ranch",
        "name": "C.B. and Potts/Big Horn Brewery - Highlands Ranch",
        "brewery_type": "brewpub",
        "street": "43 W Centennial Blvd",
        "address_2": null,
        "address_3": null,
        "city": "Highlands Ranch",
        "state": "Colorado",
        "county_province": null,
        "postal_code": "80129-2323",
        "country": "United States",
        "longitude": "-104.9887246",
        "latitude": "39.56211674",
        "phone": "7203441200",
        "website_url": "http://www.cbpotts.com",
        "updated_at": "2018-08-24T00:00:00.000Z",
        "created_at": "2018-07-24T00:00:00.000Z"
    },
    {
        "id": 12784,
        "obdb_id": "mother-tucker-brewery-thornton",
        "name": "Mother Tucker Brewery",
        "brewery_type": "micro",
        "street": "2360 E 120th Ave",
        "address_2": null,
        "address_3": null,
        "city": "Thornton",
        "state": "Colorado",
        "county_province": null,
        "postal_code": "80233-1408",
        "country": "United States",
        "longitude": "-104.9582581",
        "latitude": "39.91402476",
        "phone": "3035659459",
        "website_url": "http://mothertuckerbrewery.com",
        "updated_at": "2018-08-24T00:00:00.000Z",
        "created_at": "2018-07-24T00:00:00.000Z"
    },
    {
        "id": 13447,
        "obdb_id": "pilothouse-brewing-company-aurora",
        "name": "Pilothouse Brewing Company",
        "brewery_type": "micro",
        "street": "4233 S Buckley Rd",
        "address_2": null,
        "address_3": null,
        "city": "Aurora",
        "state": "Colorado",
        "county_province": null,
        "postal_code": "80013-2947",
        "country": "United States",
        "longitude": "-104.7915508",
        "latitude": "39.63993222",
        "phone": "3039944971",
        "website_url": "http://www.pilothousebrewco.com",
        "updated_at": "2018-08-24T00:00:00.000Z",
        "created_at": "2018-07-24T00:00:00.000Z"
    },
    {
        "id": 12661,
        "obdb_id": "millercoors-brewing-co-golden-golden",
        "name": "MillerCoors Brewing Co - Golden",
        "brewery_type": "large",
        "street": "311 10th St",
        "address_2": null,
        "address_3": null,
        "city": "Golden",
        "state": "Colorado",
        "county_province": null,
        "postal_code": "80401-5811",
        "country": "United States",
        "longitude": "-105.219592",
        "latitude": "39.759495",
        "phone": "3032776246",
        "website_url": null,
        "updated_at": "2018-08-24T00:00:00.000Z",
        "created_at": "2018-07-24T00:00:00.000Z"
    },
    {
        "id": 8672,
        "obdb_id": "barrels-bottles-brewery-golden",
        "name": "Barrels & Bottles Brewery",
        "brewery_type": "brewpub",
        "street": "600 12th St Ste 160",
        "address_2": null,
        "address_3": null,
        "city": "Golden",
        "state": "Colorado",
        "county_province": null,
        "postal_code": "80401-6145",
        "country": "United States",
        "longitude": "-105.2202098",
        "latitude": "39.7562107",
        "phone": "7203283643",
        "website_url": "http://www.barrelsbottles.com",
        "updated_at": "2018-08-24T00:00:00.000Z",
        "created_at": "2018-07-24T00:00:00.000Z"
    },
    {
        "id": 15784,
        "obdb_id": "wonderland-brewing-co-broomfield",
        "name": "Wonderland Brewing Co.",
        "brewery_type": "micro",
        "street": "5450 W 120th Ave",
        "address_2": null,
        "address_3": null,
        "city": "Broomfield",
        "state": "Colorado",
        "county_province": null,
        "postal_code": "80020-5913",
        "country": "United States",
        "longitude": "-105.0560819",
        "latitude": "39.91349895",
        "phone": "3039530400",
        "website_url": "http://www.wonderlandbrewing.com",
        "updated_at": "2018-08-24T00:00:00.000Z",
        "created_at": "2018-07-24T00:00:00.000Z"
    },
    {
        "id": 13666,
        "obdb_id": "rails-end-beer-company-broomfield",
        "name": "Rails End Beer Company",
        "brewery_type": "micro",
        "street": "11625 Reed Ct",
        "address_2": null,
        "address_3": null,
        "city": "Broomfield",
        "state": "Colorado",
        "county_province": null,
        "postal_code": "80020-2834",
        "country": "United States",
        "longitude": "-105.0750302",
        "latitude": "39.9084879",
        "phone": "3033538121",
        "website_url": "http://www.railsendbeerco.com",
        "updated_at": "2018-08-24T00:00:00.000Z",
        "created_at": "2018-07-24T00:00:00.000Z"
    },
    {
        "id": 11002,
        "obdb_id": "golden-city-brewery-golden",
        "name": "Golden City Brewery",
        "brewery_type": "brewpub",
        "street": "920 1/2 12th St",
        "address_2": null,
        "address_3": null,
        "city": "Golden",
        "state": "Colorado",
        "county_province": null,
        "postal_code": "80401-1181",
        "country": "United States",
        "longitude": "-105.2227813",
        "latitude": "39.75471167",
        "phone": "3032798092",
        "website_url": null,
        "updated_at": "2018-08-24T00:00:00.000Z",
        "created_at": "2018-07-24T00:00:00.000Z"
    },
    {
        "id": 12802,
        "obdb_id": "mountain-toad-brewing-golden",
        "name": "Mountain Toad Brewing",
        "brewery_type": "micro",
        "street": "900 Washington Ave",
        "address_2": null,
        "address_3": null,
        "city": "Golden",
        "state": "Colorado",
        "county_province": null,
        "postal_code": "80401-1047",
        "country": "United States",
        "longitude": "-105.2242563",
        "latitude": "39.75807905",
        "phone": "7206383244",
        "website_url": "http://mountaintoadbrewing.com",
        "updated_at": "2018-08-24T00:00:00.000Z",
        "created_at": "2018-07-24T00:00:00.000Z"
    },
    {
        "id": 10306,
        "obdb_id": "dry-dock-brewing-co-south-dock-aurora",
        "name": "Dry Dock Brewing Co- South Dock",
        "brewery_type": "micro",
        "street": "15120 E Hampden Ave",
        "address_2": null,
        "address_3": null,
        "city": "Aurora",
        "state": "Colorado",
        "county_province": null,
        "postal_code": "80014-3906",
        "country": "United States",
        "longitude": "-104.7680096",
        "latitude": "39.6529424",
        "phone": "3034005606",
        "website_url": "http://www.drydockbrewing.com",
        "updated_at": "2018-08-24T00:00:00.000Z",
        "created_at": "2018-07-24T00:00:00.000Z"
    },
    {
        "id": 12280,
        "obdb_id": "lone-tree-brewing-co-lone-tree",
        "name": "Lone Tree Brewing Co",
        "brewery_type": "micro",
        "street": "8222 Park Meadows Dr",
        "address_2": null,
        "address_3": null,
        "city": "Lone Tree",
        "state": "Colorado",
        "county_province": null,
        "postal_code": "80124-2746",
        "country": "United States",
        "longitude": "-104.8942075",
        "latitude": "39.56298697",
        "phone": "3037925822",
        "website_url": "http://www.lonetreebrewingco.com",
        "updated_at": "2018-08-24T00:00:00.000Z",
        "created_at": "2018-07-24T00:00:00.000Z"
    },
    {
        "id": 8762,
        "obdb_id": "beer-by-design-brewery-thornton",
        "name": "Beer By Design Brewery",
        "brewery_type": "contract",
        "street": "11490 Jackson St",
        "address_2": null,
        "address_3": null,
        "city": "Thornton",
        "state": "Colorado",
        "county_province": null,
        "postal_code": "80233-2533",
        "country": "United States",
        "longitude": "-104.9417886",
        "latitude": "39.9285623",
        "phone": "3035172202",
        "website_url": "http://www.beerbydesign.com",
        "updated_at": "2018-08-24T00:00:00.000Z",
        "created_at": "2018-07-24T00:00:00.000Z"
    },
    {
        "id": 15372,
        "obdb_id": "two22-brew-centennial",
        "name": "Two22 Brew",
        "brewery_type": "micro",
        "street": "4550 S Reservoir Rd",
        "address_2": null,
        "address_3": null,
        "city": "Centennial",
        "state": "Colorado",
        "county_province": null,
        "postal_code": "80015-2878",
        "country": "United States",
        "longitude": "-104.7601698",
        "latitude": "39.63429093",
        "phone": "7203289038",
        "website_url": "http://www.two22brew.com",
        "updated_at": "2018-08-24T00:00:00.000Z",
        "created_at": "2018-07-24T00:00:00.000Z"
    },
    {
        "id": 8231,
        "obdb_id": "acidulous-brewing-company-littleton",
        "name": "Acidulous Brewing Company",
        "brewery_type": "contract",
        "street": "6712 S Independence St",
        "address_2": null,
        "address_3": null,
        "city": "Littleton",
        "state": "Colorado",
        "county_province": null,
        "postal_code": "80128-4046",
        "country": "United States",
        "longitude": "-105.1059543",
        "latitude": "39.5383949",
        "phone": "3039952895",
        "website_url": null,
        "updated_at": "2018-08-24T00:00:00.000Z",
        "created_at": "2018-07-24T00:00:00.000Z"
    },
    {
        "id": 10008,
        "obdb_id": "crystal-springs-brewing-co-louisville",
        "name": "Crystal Springs Brewing Co",
        "brewery_type": "micro",
        "street": "657 S Taylor Ave",
        "address_2": null,
        "address_3": null,
        "city": "Louisville",
        "state": "Colorado",
        "county_province": null,
        "postal_code": "80027-3063",
        "country": "United States",
        "longitude": "-105.119781",
        "latitude": "39.964883",
        "phone": "3038845602",
        "website_url": "http://www.crystalspringsbrewing.com",
        "updated_at": "2018-08-24T00:00:00.000Z",
        "created_at": "2018-07-24T00:00:00.000Z"
    },
    {
        "id": 13764,
        "obdb_id": "redgarden-brewery-louisville",
        "name": "Redgarden Brewery",
        "brewery_type": "brewpub",
        "street": "1700 Dogwood St",
        "address_2": null,
        "address_3": null,
        "city": "Louisville",
        "state": "Colorado",
        "county_province": null,
        "postal_code": "80027-1102",
        "country": "United States",
        "longitude": "-105.1138827",
        "latitude": "39.9674475",
        "phone": "3036199601",
        "website_url": "http://www.redgardenbrewery.com",
        "updated_at": "2018-08-24T00:00:00.000Z",
        "created_at": "2018-07-24T00:00:00.000Z"
    },
    {
        "id": 8055,
        "obdb_id": "12degree-brewing-louisville",
        "name": "12Degree Brewing",
        "brewery_type": "brewpub",
        "street": "820 Main St",
        "address_2": null,
        "address_3": null,
        "city": "Louisville",
        "state": "Colorado",
        "county_province": null,
        "postal_code": "80027-1865",
        "country": "United States",
        "longitude": "-105.1319826",
        "latitude": "39.9782443",
        "phone": "3035791004",
        "website_url": "http://www.12degree.com",
        "updated_at": "2018-08-24T00:00:00.000Z",
        "created_at": "2018-07-24T00:00:00.000Z"
    }
]
